[
  {
    "building_id": 1,
    "building_code": "DWE",
    "parent_building_code": null,
    "building_name": "Douglas Wright Engineering Building",
    "alternate_building_names": null,
    "latitude": 43.47007105,
    "longitude": -80.53970638,
    "latitude_osm": 43.47013,
    "longitude_osm": -80.53953
  },
  {
    "building_id": 2,
    "building_code": "E2",
    "parent_building_code": null,
    "building_name": "Engineering 2",
    "alternate_building_names": null,
    "latitude": 43.47104345,
    "longitude": -80.54041224,
    "latitude_osm": 43.47095,
    "longitude_osm": -80.54029
  },
  {
    "building_id": 3,
    "building_code": "E3",
    "parent_building_code": null,
    "building_name": "Engineering 3",
    "alternate_building_names": null,
    "latitude": 43.4717442,
    "longitude": -80.54086285,
    "latitude_osm": 43.47167,
    "longitude_osm": -80.5408
  },
  {
    "building_id": 4,
    "building_code": "PHY",
    "parent_building_code": null,
    "building_name": "Physics",
    "alternate_building_names": null,
    "latitude": 43.47084805,
    "longitude": -80.54153806,
    "latitude_osm": 43.47088,
    "longitude_osm": -80.54157
  },
  {
    "building_id": 5,
    "building_code": "ML",
    "parent_building_code": null,
    "building_name": "Modern Languages",
    "alternate_building_names": null,
    "latitude": 43.46909688,
    "longitude": -80.54287987,
    "latitude_osm": 43.46898,
    "longitude_osm": -80.54292
  },
  {
    "building_id": 6,
    "building_code": "ESC",
    "parent_building_code": null,
    "building_name": "Earth Sciences & Chemistry",
    "alternate_building_names": null,
    "latitude": 43.47134906,
    "longitude": -80.54270285,
    "latitude_osm": 43.4714,
    "longitude_osm": -80.54273
  },
  {
    "building_id": 7,
    "building_code": "B1",
    "parent_building_code": null,
    "building_name": "Biology 1",
    "alternate_building_names": null,
    "latitude": 43.4707354,
    "longitude": -80.54298461,
    "latitude_osm": 43.47085,
    "longitude_osm": -80.54304
  },
  {
    "building_id": 8,
    "building_code": "LIB",
    "parent_building_code": null,
    "building_name": "Dana Porter Arts Library",
    "alternate_building_names": null,
    "latitude": 43.46984437,
    "longitude": -80.54242926,
    "latitude_osm": 43.46977,
    "longitude_osm": -80.54226
  },
  {
    "building_id": 9,
    "building_code": "AL",
    "parent_building_code": null,
    "building_name": "Arts Lecture Hall",
    "alternate_building_names": null,
    "latitude": 43.46894115,
    "longitude": -80.54187136,
    "latitude_osm": 43.46893,
    "longitude_osm": -80.5418
  },
  {
    "building_id": 10,
    "building_code": "EV1",
    "parent_building_code": null,
    "building_name": "Environment 1",
    "alternate_building_names": null,
    "latitude": 43.4683961,
    "longitude": -80.54262238,
    "latitude_osm": 43.46837,
    "longitude_osm": -80.54255
  },
  {
    "building_id": 11,
    "building_code": "RCH",
    "parent_building_code": null,
    "building_name": "J.R. Coutts Engineering Lecture Hall",
    "alternate_building_names": [ "Engineering Lecture Hall" ],
    "latitude": 43.47031155,
    "longitude": -80.54084139,
    "latitude_osm": 43.47034,
    "longitude_osm": -80.54072
  },
  {
    "building_id": 12,
    "building_code": "CSB",
    "parent_building_code": null,
    "building_name": "Central Services Building",
    "alternate_building_names": null,
    "latitude": 43.4737628,
    "longitude": -80.54378898,
    "latitude_osm": 43.47383,
    "longitude_osm": -80.54372
  },
  {
    "building_id": 13,
    "building_code": "B2",
    "parent_building_code": null,
    "building_name": "Biology 2",
    "alternate_building_names": null,
    "latitude": 43.4708179,
    "longitude": -80.54372874,
    "latitude_osm": 43.47088,
    "longitude_osm": -80.5437
  },
  {
    "building_id": 14,
    "building_code": "GSC",
    "parent_building_code": null,
    "building_name": "General Services Complex",
    "alternate_building_names": null,
    "latitude": 43.47342207,
    "longitude": -80.54308372,
    "latitude_osm": 43.47352,
    "longitude_osm": -80.54283
  },
  {
    "building_id": 15,
    "building_code": "COM",
    "parent_building_code": null,
    "building_name": "Commissary",
    "alternate_building_names": null,
    "latitude": 43.47412795,
    "longitude": -80.54292118,
    "latitude_osm": 43.47419,
    "longitude_osm": -80.54292
  },
  {
    "building_id": 16,
    "building_code": "SCH",
    "parent_building_code": null,
    "building_name": "South Campus Hall",
    "alternate_building_names": null,
    "latitude": 43.4692188,
    "longitude": -80.54021338,
    "latitude_osm": 43.46929,
    "longitude_osm": -80.5403
  },
  {
    "building_id": 17,
    "building_code": "MC",
    "parent_building_code": null,
    "building_name": "Mathematics & Computer Building",
    "alternate_building_names": null,
    "latitude": 43.47207511,
    "longitude": -80.54394739,
    "latitude_osm": 43.47214,
    "longitude_osm": -80.54387
  },
  {
    "building_id": 18,
    "building_code": "PAC",
    "parent_building_code": null,
    "building_name": "Physical Activities Complex",
    "alternate_building_names": null,
    "latitude": 43.47242353,
    "longitude": -80.54613339,
    "latitude_osm": 43.4723,
    "longitude_osm": -80.54618
  },
  {
    "building_id": 19,
    "building_code": "SLC",
    "parent_building_code": null,
    "building_name": "Student Life Centre",
    "alternate_building_names": null,
    "latitude": 43.471601,
    "longitude": -80.545455,
    "latitude_osm": 43.47165,
    "longitude_osm": -80.5453
  },
  {
    "building_id": 20,
    "building_code": "V1",
    "parent_building_code": null,
    "building_name": "Student Village 1",
    "alternate_building_names": null,
    "latitude": null,
    "longitude": null,
    "latitude_osm": 43.47164,
    "longitude_osm": -80.54994
  },
  {
    "building_id": "20CC",
    "building_code": "V1C",
    "parent_building_code": "V1",
    "building_name": "Student Village 1 Central Complex",
    "alternate_building_names": null,
    "latitude": 43.4716,
    "longitude": -80.54996,
    "latitude_osm": 43.47164,
    "longitude_osm": -80.54994
  },
  {
    "building_id": 200,
    "building_code": "VE1",
    "parent_building_code": "V1",
    "building_name": "Student Village 1 House East 1",
    "alternate_building_names": null,
    "latitude": 43.471745,
    "longitude": -80.549317,
    "latitude_osm": 43.47183,
    "longitude_osm": -80.54935
  },
  {
    "building_id": 2000,
    "building_code": "VE2",
    "parent_building_code": "V1",
    "building_name": "Student Village 1 House East 2",
    "alternate_building_names": null,
    "latitude": 43.471821,
    "longitude": -80.549017,
    "latitude_osm": 43.47186,
    "longitude_osm": -80.54901
  },
  {
    "building_id": 20000,
    "building_code": "VE3",
    "parent_building_code": "V1",
    "building_name": "Student Village 1 House East 3",
    "alternate_building_names": null,
    "latitude": 43.47176,
    "longitude": -80.548612,
    "latitude_osm": 43.47188,
    "longitude_osm": -80.54863
  },
  {
    "building_id": 200000,
    "building_code": "VE4",
    "parent_building_code": "V1",
    "building_name": "Student Village 1 House East 4",
    "alternate_building_names": null,
    "latitude": 43.471568,
    "longitude": -80.548526,
    "latitude_osm": 43.47162,
    "longitude_osm": -80.54856
  },
  {
    "building_id": 2000000,
    "building_code": "VE5",
    "parent_building_code": "V1",
    "building_name": "Student Village 1 House East 5",
    "alternate_building_names": null,
    "latitude": 43.471499,
    "longitude": -80.548917,
    "latitude_osm": 43.47158,
    "longitude_osm": -80.54895
  },
  {
    "building_id": 20000000,
    "building_code": "VE6",
    "parent_building_code": "V1",
    "building_name": "Student Village 1 House East 6",
    "alternate_building_names": null,
    "latitude": 43.471443,
    "longitude": -80.549304,
    "latitude_osm": 43.4715,
    "longitude_osm": -80.54931
  },
  {
    "building_id": "20N1",
    "building_code": "VN1",
    "parent_building_code": "V1",
    "building_name": "Student Village 1 House North 1",
    "alternate_building_names": null,
    "latitude": 43.47209,
    "longitude": -80.55003,
    "latitude_osm": 43.47215,
    "longitude_osm": -80.55004
  },
  {
    "building_id": "20N2",
    "building_code": "VN2",
    "parent_building_code": "V1",
    "building_name": "Student Village 1 House North 2",
    "alternate_building_names": null,
    "latitude": 43.472284,
    "longitude": -80.55023,
    "latitude_osm": 43.47237,
    "longitude_osm": -80.55026
  },
  {
    "building_id": "20N3",
    "building_code": "VN3",
    "parent_building_code": "V1",
    "building_name": "Student Village 1 House North 3",
    "alternate_building_names": null,
    "latitude": 43.47242,
    "longitude": -80.54994,
    "latitude_osm": 43.47252,
    "longitude_osm": -80.54995
  },
  {
    "building_id": "20N4",
    "building_code": "VN4",
    "parent_building_code": "V1",
    "building_name": "Student Village 1 House North 4",
    "alternate_building_names": null,
    "latitude": 43.4725,
    "longitude": -80.5496,
    "latitude_osm": 43.47256,
    "longitude_osm": -80.54961
  },
  {
    "building_id": "20N5",
    "building_code": "VN5",
    "parent_building_code": "V1",
    "building_name": "Student Village 1 House North 5",
    "alternate_building_names": null,
    "latitude": 43.47224,
    "longitude": -80.54931,
    "latitude_osm": 43.47232,
    "longitude_osm": -80.54934
  },
  {
    "building_id": "20N6",
    "building_code": "VN6",
    "parent_building_code": "V1",
    "building_name": "Student Village 1 House North 6",
    "alternate_building_names": null,
    "latitude": 43.47205,
    "longitude": -80.54956,
    "latitude_osm": 43.47214,
    "longitude_osm": -80.54957
  },
  {
    "building_id": "20S1",
    "building_code": "VS1",
    "parent_building_code": "V1",
    "building_name": "Student Village 1 House South 1",
    "alternate_building_names": null,
    "latitude": 43.471112,
    "longitude": -80.549937,
    "latitude_osm": 43.47115,
    "longitude_osm": -80.54992
  },
  {
    "building_id": "20S2",
    "building_code": "VS2",
    "parent_building_code": "V1",
    "building_name": "Student Village 1 House South 2",
    "alternate_building_names": null,
    "latitude": 43.470865,
    "longitude": -80.549891,
    "latitude_osm": 43.47092,
    "longitude_osm": -80.54985
  },
  {
    "building_id": "20S3",
    "building_code": "VS3",
    "parent_building_code": "V1",
    "building_name": "Student Village 1 House South 3",
    "alternate_building_names": null,
    "latitude": 43.470715,
    "longitude": -80.550178,
    "latitude_osm": 43.47076,
    "longitude_osm": -80.55017
  },
  {
    "building_id": "20S4",
    "building_code": "VS4",
    "parent_building_code": "V1",
    "building_name": "Student Village 1 House South 4",
    "alternate_building_names": null,
    "latitude": 43.470614,
    "longitude": -80.550481,
    "latitude_osm": 43.47064,
    "longitude_osm": -80.55048
  },
  {
    "building_id": "20S5",
    "building_code": "VS5",
    "parent_building_code": "V1",
    "building_name": "Student Village 1 House South 5",
    "alternate_building_names": null,
    "latitude": 43.470904,
    "longitude": -80.550733,
    "latitude_osm": 43.47092,
    "longitude_osm": -80.55073
  },
  {
    "building_id": "20S6",
    "building_code": "VS6",
    "parent_building_code": "V1",
    "building_name": "Student Village 1 House South 6",
    "alternate_building_names": null,
    "latitude": 43.471087,
    "longitude": -80.550478,
    "latitude_osm": 43.47111,
    "longitude_osm": -80.55047
  },
  {
    "building_id": "20S7",
    "building_code": "VS7",
    "parent_building_code": "V1",
    "building_name": "Student Village 1 House South 7",
    "alternate_building_names": null,
    "latitude": 43.47073,
    "longitude": -80.55131,
    "latitude_osm": 43.47078,
    "longitude_osm": -80.5513
  },
  {
    "building_id": "20S8",
    "building_code": "VS8",
    "parent_building_code": "V1",
    "building_name": "Student Village 1 House South 8",
    "alternate_building_names": null,
    "latitude": 43.470919,
    "longitude": -80.551554,
    "latitude_osm": 43.47097,
    "longitude_osm": -80.55156
  },
  {
    "building_id": "20W1",
    "building_code": "VW1",
    "parent_building_code": "V1",
    "building_name": "Student Village 1 House West 1",
    "alternate_building_names": null,
    "latitude": 43.471513,
    "longitude": -80.550677,
    "latitude_osm": 43.47158,
    "longitude_osm": -80.55069
  },
  {
    "building_id": "20W2",
    "building_code": "VW2",
    "parent_building_code": "V1",
    "building_name": "Student Village 1 House West 2",
    "alternate_building_names": null,
    "latitude": 43.471457,
    "longitude": -80.551063,
    "latitude_osm": 43.47153,
    "longitude_osm": -80.55106
  },
  {
    "building_id": "20W3",
    "building_code": "VW3",
    "parent_building_code": "V1",
    "building_name": "Student Village 1 House West 3",
    "alternate_building_names": null,
    "latitude": 43.471725,
    "longitude": -80.551431,
    "latitude_osm": 43.47179,
    "longitude_osm": -80.55146
  },
  {
    "building_id": "20W4",
    "building_code": "VW4",
    "parent_building_code": "V1",
    "building_name": "Student Village 1 House West 4",
    "alternate_building_names": null,
    "latitude": 43.471902,
    "longitude": -80.551192,
    "latitude_osm": 43.47198,
    "longitude_osm": -80.55119
  },
  {
    "building_id": "20W5",
    "building_code": "VW5",
    "parent_building_code": "V1",
    "building_name": "Student Village 1 House West 5",
    "alternate_building_names": null,
    "latitude": 43.472031,
    "longitude": -80.550897,
    "latitude_osm": 43.47212,
    "longitude_osm": -80.55089
  },
  {
    "building_id": "20W6",
    "building_code": "VW6",
    "parent_building_code": "V1",
    "building_name": "Student Village 1 House West 6",
    "alternate_building_names": null,
    "latitude": 43.47183,
    "longitude": -80.550647,
    "latitude_osm": 43.47193,
    "longitude_osm": -80.55065
  },
  {
    "building_id": 21,
    "building_code": "TH",
    "parent_building_code": null,
    "building_name": "Tutors' Houses",
    "alternate_building_names": null,
    "latitude": 43.470546,
    "longitude": -80.552748,
    "latitude_osm": 43.47066,
    "longitude_osm": -80.55273
  },
  {
    "building_id": 22,
    "building_code": "HS",
    "parent_building_code": null,
    "building_name": "Health Services",
    "alternate_building_names": null,
    "latitude": 43.47058601,
    "longitude": -80.54611194,
    "latitude_osm": 43.4705,
    "longitude_osm": -80.54619
  },
  {
    "building_id": 23,
    "building_code": "MHR",
    "parent_building_code": null,
    "building_name": "Minota Hagey Residence",
    "alternate_building_names": null,
    "latitude": 43.46579535,
    "longitude": -80.54275113,
    "latitude_osm": 43.46584,
    "longitude_osm": -80.54257
  },
  {
    "building_id": 24,
    "building_code": "HH",
    "parent_building_code": null,
    "building_name": "J.G. Hagey Hall of the Humanities",
    "alternate_building_names": null,
    "latitude": 43.46792891,
    "longitude": -80.54165679,
    "latitude_osm": 43.4679,
    "longitude_osm": -80.54143
  },
  {
    "building_id": 25,
    "building_code": "REV",
    "parent_building_code": null,
    "building_name": "Ron Eydt Village",
    "alternate_building_names": null,
    "latitude": null,
    "longitude": null,
    "latitude_osm": 43.47034,
    "longitude_osm": -80.55424
  },
  {
    "building_id": "25CC",
    "building_code": "REC",
    "parent_building_code": "REV",
    "building_name": "Ron Eydt Village Central Complex",
    "alternate_building_names": null,
    "latitude": 43.47015582,
    "longitude": -80.55412369,
    "latitude_osm": 43.47034,
    "longitude_osm": -80.55424
  },
  {
    "building_id": "25E",
    "building_code": "VE",
    "parent_building_code": "REV",
    "building_name": "Ron Eydt Village East",
    "alternate_building_names": null,
    "latitude": null,
    "longitude": null,
    "latitude_osm": 43.4695,
    "longitude_osm": -80.55327
  },
  {
    "building_id": "25EA",
    "building_code": "VEA",
    "parent_building_code": "REV",
    "building_name": "Ron Eydt Village East A",
    "alternate_building_names": null,
    "latitude": 43.469348,
    "longitude": -80.553464,
    "latitude_osm": null,
    "longitude_osm": null
  },
  {
    "building_id": "25EB",
    "building_code": "VEB",
    "parent_building_code": "REV",
    "building_name": "Ron Eydt Village East B",
    "alternate_building_names": null,
    "latitude": 43.469348,
    "longitude": -80.553464,
    "latitude_osm": null,
    "longitude_osm": null
  },
  {
    "building_id": "25EC",
    "building_code": "VEC",
    "parent_building_code": "REV",
    "building_name": "Ron Eydt Village East C",
    "alternate_building_names": null,
    "latitude": 43.469547,
    "longitude": -80.552989,
    "latitude_osm": null,
    "longitude_osm": null
  },
  {
    "building_id": "25ED",
    "building_code": "VED",
    "parent_building_code": "REV",
    "building_name": "Ron Eydt Village East D",
    "alternate_building_names": null,
    "latitude": 43.469547,
    "longitude": -80.552989,
    "latitude_osm": null,
    "longitude_osm": null
  },
  {
    "building_id": "25EE",
    "building_code": "VEE",
    "parent_building_code": "REV",
    "building_name": "Ron Eydt Village East E",
    "alternate_building_names": null,
    "latitude": 43.469547,
    "longitude": -80.552989,
    "latitude_osm": null,
    "longitude_osm": null
  },
  {
    "building_id": "25EL",
    "building_code": "VEL",
    "parent_building_code": "REV",
    "building_name": "Ron Eydt Village East L",
    "alternate_building_names": null,
    "latitude": null,
    "longitude": null,
    "latitude_osm": null,
    "longitude_osm": null
  },
  {
    "building_id": "25N",
    "building_code": "VN",
    "parent_building_code": "REV",
    "building_name": "Ron Eydt Village North",
    "alternate_building_names": null,
    "latitude": null,
    "longitude": null,
    "latitude_osm": 43.47072,
    "longitude_osm": -80.55365
  },
  {
    "building_id": "25NA",
    "building_code": "VNA",
    "parent_building_code": "REV",
    "building_name": "Ron Eydt Village North A",
    "alternate_building_names": null,
    "latitude": 43.470777,
    "longitude": -80.554,
    "latitude_osm": null,
    "longitude_osm": null
  },
  {
    "building_id": "25NB",
    "building_code": "VNB",
    "parent_building_code": "REV",
    "building_name": "Ron Eydt Village North B",
    "alternate_building_names": null,
    "latitude": 43.470777,
    "longitude": -80.554,
    "latitude_osm": null,
    "longitude_osm": null
  },
  {
    "building_id": "25NC",
    "building_code": "VNC",
    "parent_building_code": "REV",
    "building_name": "Ron Eydt Village North C",
    "alternate_building_names": null,
    "latitude": 43.470526,
    "longitude": -80.553539,
    "latitude_osm": null,
    "longitude_osm": null
  },
  {
    "building_id": "25ND",
    "building_code": "VND",
    "parent_building_code": "REV",
    "building_name": "Ron Eydt Village North D",
    "alternate_building_names": null,
    "latitude": 43.470526,
    "longitude": -80.553539,
    "latitude_osm": null,
    "longitude_osm": null
  },
  {
    "building_id": "25NE",
    "building_code": "VNE",
    "parent_building_code": "REV",
    "building_name": "Ron Eydt Village North E",
    "alternate_building_names": null,
    "latitude": 43.470526,
    "longitude": -80.553539,
    "latitude_osm": null,
    "longitude_osm": null
  },
  {
    "building_id": "25NL",
    "building_code": "VNL",
    "parent_building_code": "REV",
    "building_name": "Ron Eydt Village North L",
    "alternate_building_names": null,
    "latitude": null,
    "longitude": null,
    "latitude_osm": null,
    "longitude_osm": null
  },
  {
    "building_id": "25S",
    "building_code": "VS",
    "parent_building_code": "REV",
    "building_name": "Ron Eydt Village South",
    "alternate_building_names": null,
    "latitude": null,
    "longitude": null,
    "latitude_osm": 43.46955,
    "longitude_osm": -80.55441
  },
  {
    "building_id": "25SA",
    "building_code": "VSA",
    "parent_building_code": "REV",
    "building_name": "Ron Eydt Village South A",
    "alternate_building_names": null,
    "latitude": 43.469385,
    "longitude": -80.554086,
    "latitude_osm": null,
    "longitude_osm": null
  },
  {
    "building_id": "25SB",
    "building_code": "VSB",
    "parent_building_code": "REV",
    "building_name": "Ron Eydt Village South B",
    "alternate_building_names": null,
    "latitude": 43.469385,
    "longitude": -80.554086,
    "latitude_osm": null,
    "longitude_osm": null
  },
  {
    "building_id": "25SC",
    "building_code": "VSC",
    "parent_building_code": "REV",
    "building_name": "Ron Eydt Village South C",
    "alternate_building_names": null,
    "latitude": 43.469679,
    "longitude": -80.554716,
    "latitude_osm": null,
    "longitude_osm": null
  },
  {
    "building_id": "25SD",
    "building_code": "VSD",
    "parent_building_code": "REV",
    "building_name": "Ron Eydt Village South D",
    "alternate_building_names": null,
    "latitude": 43.469679,
    "longitude": -80.554716,
    "latitude_osm": null,
    "longitude_osm": null
  },
  {
    "building_id": "25SE",
    "building_code": "VSE",
    "parent_building_code": "REV",
    "building_name": "Ron Eydt Village South E",
    "alternate_building_names": null,
    "latitude": 43.469679,
    "longitude": -80.554716,
    "latitude_osm": null,
    "longitude_osm": null
  },
  {
    "building_id": "25SL",
    "building_code": "VSL",
    "parent_building_code": "REV",
    "building_name": "Ron Eydt Village South L",
    "alternate_building_names": null,
    "latitude": null,
    "longitude": null,
    "latitude_osm": null,
    "longitude_osm": null
  },
  {
    "building_id": "25W",
    "building_code": "VW",
    "parent_building_code": "REV",
    "building_name": "Ron Eydt Village West",
    "alternate_building_names": null,
    "latitude": null,
    "longitude": null,
    "latitude_osm": 43.4708,
    "longitude_osm": -80.55474
  },
  {
    "building_id": "25WA",
    "building_code": "VWA",
    "parent_building_code": "REV",
    "building_name": "Ron Eydt Village West A",
    "alternate_building_names": null,
    "latitude": 43.470806,
    "longitude": -80.554609,
    "latitude_osm": null,
    "longitude_osm": null
  },
  {
    "building_id": "25WB",
    "building_code": "VWB",
    "parent_building_code": "REV",
    "building_name": "Ron Eydt Village West B",
    "alternate_building_names": null,
    "latitude": 43.470806,
    "longitude": -80.554609,
    "latitude_osm": null,
    "longitude_osm": null
  },
  {
    "building_id": "25WC",
    "building_code": "VWC",
    "parent_building_code": "REV",
    "building_name": "Ron Eydt Village West C",
    "alternate_building_names": null,
    "latitude": 43.470579,
    "longitude": -80.555062,
    "latitude_osm": null,
    "longitude_osm": null
  },
  {
    "building_id": "25WD",
    "building_code": "VWD",
    "parent_building_code": "REV",
    "building_name": "Ron Eydt Village West D",
    "alternate_building_names": null,
    "latitude": 43.470579,
    "longitude": -80.555062,
    "latitude_osm": null,
    "longitude_osm": null
  },
  {
    "building_id": "25WE",
    "building_code": "VWE",
    "parent_building_code": "REV",
    "building_name": "Ron Eydt Village West E",
    "alternate_building_names": null,
    "latitude": 43.470579,
    "longitude": -80.555062,
    "latitude_osm": null,
    "longitude_osm": null
  },
  {
    "building_id": "25WL",
    "building_code": "VWL",
    "parent_building_code": "REV",
    "building_name": "Ron Eydt Village West L",
    "alternate_building_names": null,
    "latitude": null,
    "longitude": null,
    "latitude_osm": null,
    "longitude_osm": null
  },
  {
    "building_id": 26,
    "building_code": "UWP",
    "parent_building_code": null,
    "building_name": "University of Waterloo Place",
    "alternate_building_names": null,
    "latitude": null,
    "longitude": null,
    "latitude_osm": 43.47074,
    "longitude_osm": -80.53515
  },
  {
    "building_id": "26CC",
    "building_code": "UCC",
    "parent_building_code": "UWP",
    "building_name": "UW Place Community Centre",
    "alternate_building_names": null,
    "latitude": 43.4704,
    "longitude": -80.53553,
    "latitude_osm": null,
    "longitude_osm": null
  },
  {
    "building_id": "26EC",
    "building_code": "UEC",
    "parent_building_code": "UWP",
    "building_name": "UW Place Woolwich Court",
    "alternate_building_names": null,
    "latitude": 43.47064,
    "longitude": -80.53354,
    "latitude_osm": 43.47062,
    "longitude_osm": -80.53352
  },
  {
    "building_id": "26ET",
    "building_code": "UET",
    "parent_building_code": "UWP",
    "building_name": "UW Place Beck Hall",
    "alternate_building_names": null,
    "latitude": 43.470573,
    "longitude": -80.534699,
    "latitude_osm": 43.47078,
    "longitude_osm": -80.5347
  },
  {
    "building_id": "26NC",
    "building_code": "UNC",
    "parent_building_code": "UWP",
    "building_name": "UW Place Wellesley Court",
    "alternate_building_names": null,
    "latitude": 43.47155,
    "longitude": -80.53564,
    "latitude_osm": 43.47149,
    "longitude_osm": -80.53566
  },
  {
    "building_id": "26SC",
    "building_code": "USC",
    "parent_building_code": "UWP",
    "building_name": "UW Place Waterloo Court",
    "alternate_building_names": null,
    "latitude": 43.47007,
    "longitude": -80.53492,
    "latitude_osm": 43.47006,
    "longitude_osm": -80.53485
  },
  {
    "building_id": "26WC",
    "building_code": "UWC",
    "parent_building_code": "UWP",
    "building_name": "UW Place Wilmot Court",
    "alternate_building_names": null,
    "latitude": 43.47111,
    "longitude": -80.53666,
    "latitude_osm": 43.47106,
    "longitude_osm": -80.5366
  },
  {
    "building_id": "26WT",
    "building_code": "UWT",
    "parent_building_code": "UWP",
    "building_name": "UW Place Eby Hall",
    "alternate_building_names": null,
    "latitude": 43.47067,
    "longitude": -80.53512,
    "latitude_osm": 43.47066,
    "longitude_osm": -80.53535
  },
  {
    "building_id": 27,
    "building_code": "UC",
    "parent_building_code": null,
    "building_name": "University Club",
    "alternate_building_names": null,
    "latitude": 43.472334,
    "longitude": -80.547378,
    "latitude_osm": 43.47237,
    "longitude_osm": -80.54737
  },
  {
    "building_id": 28,
    "building_code": "C2",
    "parent_building_code": null,
    "building_name": "Chemistry 2",
    "alternate_building_names": null,
    "latitude": 43.4720703,
    "longitude": -80.54290487,
    "latitude_osm": 43.47213,
    "longitude_osm": -80.54292
  },
  {
    "building_id": 29,
    "building_code": "CPH",
    "parent_building_code": null,
    "building_name": "Carl A. Pollock Hall",
    "alternate_building_names": null,
    "latitude": 43.47095002,
    "longitude": -80.53933936,
    "latitude_osm": 43.47097,
    "longitude_osm": -80.53917
  },
  {
    "building_id": 30,
    "building_code": "PAS",
    "parent_building_code": null,
    "building_name": "Psychology, Anthropology, Sociology",
    "alternate_building_names": null,
    "latitude": 43.46726305,
    "longitude": -80.54246097,
    "latitude_osm": 43.4672,
    "longitude_osm": -80.54234
  },
  {
    "building_id": 31,
    "building_code": "NH",
    "parent_building_code": null,
    "building_name": "Ira G. Needles Hall",
    "alternate_building_names": null,
    "latitude": 43.46962635,
    "longitude": -80.54363089,
    "latitude_osm": 43.46997,
    "longitude_osm": -80.54376
  },
  {
    "building_id": 32,
    "building_code": "BMH",
    "parent_building_code": null,
    "building_name": "B.C. Matthews Hall",
    "alternate_building_names": null,
    "latitude": 43.47386586,
    "longitude": -80.54517584,
    "latitude_osm": 43.47372,
    "longitude_osm": -80.5454
  },
  {
    "building_id": 33,
    "building_code": "OPT",
    "parent_building_code": null,
    "building_name": "Optometry",
    "alternate_building_names": null,
    "latitude": 43.47592517,
    "longitude": -80.5455299,
    "latitude_osm": 43.47595,
    "longitude_osm": -80.54551
  },
  {
    "building_id": 34,
    "building_code": "EV2",
    "parent_building_code": null,
    "building_name": "Environment 2",
    "alternate_building_names": null,
    "latitude": 43.46786,
    "longitude": -80.54324,
    "latitude_osm": 43.46794,
    "longitude_osm": -80.54319
  },
  {
    "building_id": 35,
    "building_code": "FED",
    "parent_building_code": null,
    "building_name": "Federation Hall",
    "alternate_building_names": null,
    "latitude": 43.47324689,
    "longitude": -80.54864126,
    "latitude_osm": 43.47321,
    "longitude_osm": -80.54851
  },
  {
    "building_id": 36,
    "building_code": "ECH",
    "parent_building_code": null,
    "building_name": "East Campus Hall",
    "alternate_building_names": null,
    "latitude": 43.47366343,
    "longitude": -80.53864735,
    "latitude_osm": 43.47376,
    "longitude_osm": -80.53868
  },
  {
    "building_id": 37,
    "building_code": "DC",
    "parent_building_code": null,
    "building_name": "William G. Davis Computer Research Centre",
    "alternate_building_names": null,
    "latitude": 43.472761,
    "longitude": -80.542164,
    "latitude_osm": 43.47266,
    "longitude_osm": -80.54213
  }, 
  {
    "building_id": 39,
    "building_code": "EIT",
    "parent_building_code": null,
    "building_name": "Centre for Environmental and Information Technology",
    "alternate_building_names": null,
    "latitude": 43.47149504,
    "longitude": -80.54206448,
    "latitude_osm": 43.47161,
    "longitude_osm": -80.54203
  },
  {
    "building_id": 40,
    "building_code": "BAU",
    "parent_building_code": null,
    "building_name": "Bauer Warehouse",
    "alternate_building_names": null,
    "latitude": 43.483354,
    "longitude": -80.545715,
    "latitude_osm": 43.48341,
    "longitude_osm": -80.54571
  },
  {
    "building_id": 41,
    "building_code": "COG",
    "parent_building_code": null,
    "building_name": "Columbia Greenhouses",
    "alternate_building_names": null,
    "latitude": 43.473218,
    "longitude": -80.559405,
    "latitude_osm": 43.47327,
    "longitude_osm": -80.55938
  },
  {
    "building_id": 42,
    "building_code": "CIF",
    "parent_building_code": null,
    "building_name": "Columbia Icefield",
    "alternate_building_names": null,
    "latitude": 43.47535682,
    "longitude": -80.54852324,
    "latitude_osm": 43.47541,
    "longitude_osm": -80.54843
  },
  {
    "building_id": 43,
    "building_code": "CLV",
    "parent_building_code": null,
    "building_name": "Columbia Lake Village",
    "alternate_building_names": null,
    "latitude": null,
    "longitude": null,
    "latitude_osm": 43.47028,
    "longitude_osm": -80.56176
  },
  {
    "building_id": "43A",
    "building_code": "CTA",
    "parent_building_code": "CLV",
    "building_name": "Columbia Lake Village South Block A",
    "alternate_building_names": null,
    "latitude": 43.470456,
    "longitude": -80.5597,
    "latitude_osm": 43.47053,
    "longitude_osm": -80.5596
  },
  {
    "building_id": "43B",
    "building_code": "CTB",
    "parent_building_code": "CLV",
    "building_name": "Columbia Lake Village South Block B",
    "alternate_building_names": null,
    "latitude": 43.470754,
    "longitude": -80.560116,
    "latitude_osm": 43.47076,
    "longitude_osm": -80.5601
  },
  {
    "building_id": "43C",
    "building_code": "CTC",
    "parent_building_code": "CLV",
    "building_name": "Columbia Lake Village South Block C",
    "alternate_building_names": null,
    "latitude": 43.47088,
    "longitude": -80.559638,
    "latitude_osm": 43.47086,
    "longitude_osm": -80.55956
  },
  {
    "building_id": "43D",
    "building_code": "CTD",
    "parent_building_code": "CLV",
    "building_name": "Columbia Lake Village South Block D",
    "alternate_building_names": null,
    "latitude": 43.470071,
    "longitude": -80.560934,
    "latitude_osm": 43.47009,
    "longitude_osm": -80.56105
  },
  {
    "building_id": "43E",
    "building_code": "CTE",
    "parent_building_code": "CLV",
    "building_name": "Columbia Lake Village South Block E",
    "alternate_building_names": null,
    "latitude": 43.470384,
    "longitude": -80.561398,
    "latitude_osm": 43.47044,
    "longitude_osm": -80.56139
  },
  {
    "building_id": "43F",
    "building_code": "CTF",
    "parent_building_code": "CLV",
    "building_name": "Columbia Lake Village South Block F",
    "alternate_building_names": null,
    "latitude": 43.470705,
    "longitude": -80.561178,
    "latitude_osm": 43.47076,
    "longitude_osm": -80.56119
  },
  {
    "building_id": "43G",
    "building_code": "CTG",
    "parent_building_code": "CLV",
    "building_name": "Columbia Lake Village South Block G",
    "alternate_building_names": null,
    "latitude": 43.4704,
    "longitude": -80.560832,
    "latitude_osm": 43.47047,
    "longitude_osm": -80.56086
  },
  {
    "building_id": "43H",
    "building_code": "CTH",
    "parent_building_code": "CLV",
    "building_name": "Columbia Lake Village South Block H",
    "alternate_building_names": null,
    "latitude": 43.46974,
    "longitude": -80.561942,
    "latitude_osm": 43.46976,
    "longitude_osm": -80.56195
  },
  {
    "building_id": "43J",
    "building_code": "CTJ",
    "parent_building_code": "CLV",
    "building_name": "Columbia Lake Village South Block J",
    "alternate_building_names": null,
    "latitude": 43.470201,
    "longitude": -80.562586,
    "latitude_osm": 43.47025,
    "longitude_osm": -80.56258
  },
  {
    "building_id": "43K",
    "building_code": "CTK",
    "parent_building_code": "CLV",
    "building_name": "Columbia Lake Village South Block K",
    "alternate_building_names": null,
    "latitude": 43.470152,
    "longitude": -80.562114,
    "latitude_osm": 43.47019,
    "longitude_osm": -80.56212
  },
  {
    "building_id": "43L",
    "building_code": "CTL",
    "parent_building_code": "CLV",
    "building_name": "Columbia Lake Village South Block L",
    "alternate_building_names": null,
    "latitude": 43.469175,
    "longitude": -80.563248,
    "latitude_osm": 43.46919,
    "longitude_osm": -80.56333
  },
  {
    "building_id": "43M",
    "building_code": "CTM",
    "parent_building_code": "CLV",
    "building_name": "Columbia Lake Village South Block M",
    "alternate_building_names": null,
    "latitude": 43.469331,
    "longitude": -80.56371,
    "latitude_osm": 43.46937,
    "longitude_osm": -80.56369
  },
  {
    "building_id": "43N",
    "building_code": "CTN",
    "parent_building_code": "CLV",
    "building_name": "Columbia Lake Village South Block N",
    "alternate_building_names": null,
    "latitude": 43.469598,
    "longitude": -80.563256,
    "latitude_osm": 43.46962,
    "longitude_osm": -80.56326
  },
  {
    "building_id": "43P",
    "building_code": "CTP",
    "parent_building_code": "CLV",
    "building_name": "Columbia Lake Village South Block P",
    "alternate_building_names": null,
    "latitude": null,
    "longitude": null,
    "latitude_osm": 43.46987,
    "longitude_osm": -80.56247
  },
  {
    "building_id": "43Q",
    "building_code": "CTQ",
    "parent_building_code": "CLV",
    "building_name": "Columbia Lake Village South Laundry",
    "alternate_building_names": null,
    "latitude": 43.4708188,
    "longitude": -80.5625084,
    "latitude_osm": 43.47083,
    "longitude_osm": -80.56246
  },
  {
    "building_id": 44,
    "building_code": "MKV",
    "parent_building_code": "MKV",
    "building_name": "William Lyon Mackenzie King Village",
    "alternate_building_names": null,
    "latitude": 43.471509,
    "longitude": -80.552729,
    "latitude_osm": 43.47158,
    "longitude_osm": -80.55268
  },
  {
    "building_id": "44A",
    "building_code": "MKV",
    "parent_building_code": null,
    "building_name": "William Lyon Mackenzie King Village",
    "alternate_building_names": null,
    "latitude": null,
    "longitude": null,
    "latitude_osm": 43.47135,
    "longitude_osm": -80.55254
  },
  {
    "building_id": "44E",
    "building_code": "MKE",
    "parent_building_code": "MKV",
    "building_name": "William Lyon Mackenzie King Village East",
    "alternate_building_names": null,
    "latitude": 43.47132,
    "longitude": -80.551983,
    "latitude_osm": 43.47147,
    "longitude_osm": -80.55207
  },
  {
    "building_id": "44W",
    "building_code": "MKW",
    "parent_building_code": "MKV",
    "building_name": "William Lyon Mackenzie King Village West",
    "alternate_building_names": null,
    "latitude": 43.471161,
    "longitude": -80.553056,
    "latitude_osm": 43.47122,
    "longitude_osm": -80.55303
  },
  {
    "building_id": 45,
    "building_code": "TC",
    "parent_building_code": null,
    "building_name": "William M. Tatham Centre for Co-operative Education & Career Action",
    "alternate_building_names": null,
    "latitude": 43.46904735,
    "longitude": -80.5412835,
    "latitude_osm": 43.46902,
    "longitude_osm": -80.54123
  },
  {
    "building_id": 47,
    "building_code": "ARC",
    "parent_building_code": null,
    "building_name": "School of Architecture",
    "alternate_building_names": null,
    "latitude": 43.358572,
    "longitude": -80.31692,
    "latitude_osm": 43.35813,
    "longitude_osm": -80.3167
  },
  {
    "building_id": 48,
    "building_code": "ERC",
    "parent_building_code": null,
    "building_name": "Energy Research Centre",
    "alternate_building_names": null,
    "latitude": 43.4736245,
    "longitude": -80.54447847,
    "latitude_osm": 43.47368,
    "longitude_osm": -80.54438
  },
  {
    "building_id": 49,
    "building_code": "PHR",
    "parent_building_code": null,
    "building_name": "Pharmacy",
    "alternate_building_names": null,
    "latitude": 43.452847,
    "longitude": -80.49902,
    "latitude_osm": 43.45286,
    "longitude_osm": -80.49905
  },
  {
    "building_id": 50,
    "building_code": "QNC",
    "parent_building_code": null,
    "building_name": "Mike & Ophelia Lazaridis Quantum-Nano Centre",
    "alternate_building_names": null,
    "latitude": 43.4712484,
    "longitude": -80.54419245,
    "latitude_osm": 43.47127,
    "longitude_osm": -80.54401
  },
  {
    "building_id": 51,
    "building_code": "RAC",
    "parent_building_code": null,
    "building_name": "Research Advancement Centre",
    "alternate_building_names": null,
    "latitude": 43.47884,
    "longitude": -80.55498,
    "latitude_osm": 43.47884,
    "longitude_osm": -80.55485
  },
  {
    "building_id": 52,
    "building_code": "IHB",
    "parent_building_code": null,
    "building_name": "Integrated Health Building",
    "alternate_building_names": null,
    "latitude": 43.452311,
    "longitude": -80.499208,
    "latitude_osm": 43.45236,
    "longitude_osm": -80.49919
  },
  {
    "building_id": 53,
    "building_code": "E5",
    "parent_building_code": null,
    "building_name": "Engineering 5",
    "alternate_building_names": null,
    "latitude": 43.472953,
    "longitude": -80.540085,
    "latitude_osm": 43.47284,
    "longitude_osm": -80.54
  },
  {
    "building_id": 54,
    "building_code": "STC",
    "parent_building_code": null,
    "building_name": "Science Teaching Complex",
    "alternate_building_names": null,
    "latitude": 43.47064,
    "longitude": -80.54338,
    "latitude_osm": 43.47064,
    "longitude_osm": -80.54338
  },
  {
    "building_id": 55,
    "building_code": "DMS",
    "parent_building_code": null,
    "building_name": "Digital Media Stratford",
    "alternate_building_names": null,
    "latitude": 43.36783,
    "longitude": -80.9821,
    "latitude_osm": 43.3679,
    "longitude_osm": -80.98213
  },
  {
    "building_id": 56,
    "building_code": "M3",
    "parent_building_code": null,
    "building_name": "Mathematics 3",
    "alternate_building_names": null,
    "latitude": 43.47320425,
    "longitude": -80.54404983,
    "latitude_osm": 43.47327,
    "longitude_osm": -80.54405
  },
  {
    "building_id": 57,
    "building_code": "EV3",
    "parent_building_code": null,
    "building_name": "Environment 3",
    "alternate_building_names": null,
    "latitude": 43.468159,
    "longitude": -80.543376,
    "latitude_osm": 43.4682,
    "longitude_osm": -80.54337
  },
  {
    "building_id": 58,
    "building_code": "RA2",
    "parent_building_code": null,
    "building_name": "Research Advancement Centre 2",
    "alternate_building_names": null,
    "latitude": 43.47863,
    "longitude": -80.55553,
    "latitude_osm": 43.47841,
    "longitude_osm": -80.55558
  },
  {
    "building_id": 59,
    "building_code": "ART",
    "parent_building_code": null,
    "building_name": "Arts Building",
    "alternate_building_names": null,
    "latitude": null,
    "longitude": null,
    "latitude_osm": null,
    "longitude_osm": null
  },
  {
    "building_id": 60,
    "building_code": "E6",
    "parent_building_code": null,
    "building_name": "Engineering 6",
    "alternate_building_names": null,
    "latitude": 43.47295805,
    "longitude": -80.53868181,
    "latitude_osm": 43.47301,
    "longitude_osm": -80.53868
  },
  {
    "building_id": 61,
    "building_code": "TJB",
    "parent_building_code": null,
    "building_name": "Toby Jenkins Applied Health Research Building",
    "alternate_building_names": null,
    "latitude": null,
    "longitude": null,
    "latitude_osm": 43.47918,
    "longitude_osm": -80.54835
  },
  {
    "building_id": 62,
    "building_code": "EC1",
    "parent_building_code": null,
    "building_name": "East Campus 1",
    "alternate_building_names": null,
    "latitude": 43.47612645,
    "longitude": -80.54004246,
    "latitude_osm": 43.47623,
    "longitude_osm": -80.5403
  },
  {
    "building_id": 63,
    "building_code": "EC2",
    "parent_building_code": null,
    "building_name": "East Campus 2",
    "alternate_building_names": null,
    "latitude": 43.47456525,
    "longitude": -80.54134834,
    "latitude_osm": 43.47461,
    "longitude_osm": -80.54135
  },
  {
    "building_id": 64,
    "building_code": "EC3",
    "parent_building_code": null,
    "building_name": "East Campus 3",
    "alternate_building_names": null,
    "latitude": 43.47563655,
    "longitude": -80.54219408,
    "latitude_osm": 43.47572,
    "longitude_osm": -80.54217
  },
  {
    "building_id": 65,
    "building_code": "EC4",
    "parent_building_code": null,
    "building_name": "East Campus 4",
    "alternate_building_names": null,
    "latitude": null,
    "longitude": null,
    "latitude_osm": 43.47485,
    "longitude_osm": -80.53977
  },
  {
    "building_id": 66,
    "building_code": "EC5",
    "parent_building_code": null,
    "building_name": "East Campus 5",
    "alternate_building_names": null,
    "latitude": null,
    "longitude": null,
    "latitude_osm": 43.47548,
    "longitude_osm": -80.54064
  },
  {
    "building_id": 67,
    "building_code": "E7",
    "parent_building_code": null,
    "building_name": "Engineering 7",
    "alternate_building_names": null,
    "latitude": 43.47293,
    "longitude": -80.53958,
    "latitude_osm": 43.47293,
    "longitude_osm": -80.53958
  },
  {
    "building_id": 68,
    "building_code": "CMH",
    "parent_building_code": null,
    "building_name": "Claudette Millar Hall",
    "alternate_building_names": null,
    "latitude": 43.4702626,
    "longitude": -80.53592688,
    "latitude_osm": 43.47023,
    "longitude_osm": -80.53599
  },
  {
    "building_id": 69,
    "building_code": "ST2",
    "parent_building_code": null,
    "building_name": "Science Teaching 2",
    "alternate_building_names": null,
    "latitude": null,
    "longitude": null,
    "latitude_osm": null,
    "longitude_osm": null
  },
  {
    "building_id": 85,
    "building_code": "TUN",
    "parent_building_code": null,
    "building_name": "Service Tunnels",
    "alternate_building_names": null,
    "latitude": null,
    "longitude": null,
    "latitude_osm": null,
    "longitude_osm": null
  },
  {
    "building_id": 87,
    "building_code": "GST",
    "parent_building_code": null,
    "building_name": "Ground Storage Building V2",
    "alternate_building_names": null,
    "latitude": null,
    "longitude": null,
    "latitude_osm": null,
    "longitude_osm": null
  },
  {
    "building_id": 88,
    "building_code": "KKS",
    "parent_building_code": null,
    "building_name": "Kiosks 1, 2, 3, 4, & 5",
    "alternate_building_names": null,
    "latitude": null,
    "longitude": null,
    "latitude_osm": null,
    "longitude_osm": null
  },
  {
    "building_id": 89,
    "building_code": "EV",
    "parent_building_code": null,
    "building_name": "Electrical Vault",
    "alternate_building_names": null,
    "latitude": null,
    "longitude": null,
    "latitude_osm": null,
    "longitude_osm": null
  },
  {
    "building_id": 90,
    "building_code": "MV",
    "parent_building_code": null,
    "building_name": "Mechanical Vault",
    "alternate_building_names": null,
    "latitude": null,
    "longitude": null,
    "latitude_osm": null,
    "longitude_osm": null
  },
  {
    "building_id": 93,
    "building_code": "POV",
    "parent_building_code": null,
    "building_name": "Pedestrian Overpass",
    "alternate_building_names": null,
    "latitude": null,
    "longitude": null,
    "latitude_osm": null,
    "longitude_osm": null
  },
  {
    "building_id": 94,
    "building_code": "PT",
    "parent_building_code": null,
    "building_name": "Pedestrian Tunnels",
    "alternate_building_names": null,
    "latitude": null,
    "longitude": null,
    "latitude_osm": null,
    "longitude_osm": null
  },
  {
    "building_id": 95,
    "building_code": "TEN",
    "parent_building_code": null,
    "building_name": "Tennis Courts",
    "alternate_building_names": null,
    "latitude": null,
    "longitude": null,
    "latitude_osm": null,
    "longitude_osm": null
  },
  {
    "building_id": 100,
    "building_code": "SGR",
    "parent_building_code": null,
    "building_name": "Schmidt Greenhouse",
    "alternate_building_names": null,
    "latitude": null,
    "longitude": null,
    "latitude_osm": null,
    "longitude_osm": null
  }, 
  {
    "building_id": 104,
    "building_code": "GH",
    "parent_building_code": null,
    "building_name": "Graduate House",
    "alternate_building_names": "Grad House",
    "latitude": 43.46973295,
    "longitude": -80.54091806,
    "latitude_osm": 43.46978,
    "longitude_osm": -80.54092
  },
  {
    "building_id": 106,
    "building_code": "DB",
    "parent_building_code": null,
    "building_name": "Dearborn Pumphouse",
    "alternate_building_names": null,
    "latitude": null,
    "longitude": null,
    "latitude_osm": null,
    "longitude_osm": null
  },  
  {
    "building_id": 112,
    "building_code": "BRH",
    "parent_building_code": null,
    "building_name": "Brubacher House",
    "alternate_building_names": null,
    "latitude": 43.475571,
    "longitude": -80.552348,
    "latitude_osm": 43.4756,
    "longitude_osm": -80.55232
  }, 
  {
    "building_id": 115,
    "building_code": "KDC",
    "parent_building_code": null,
    "building_name": "Klemmer Farmhouse Cooperative Nursery Inc.",
    "alternate_building_names": null,
    "latitude": 43.476023,
    "longitude": -80.549178,
    "latitude_osm": null,
    "longitude_osm": null
  },  
  {
    "building_id": 123,
    "building_code": "HMN",
    "parent_building_code": null,
    "building_name": "Hildegard-Marsden Co-operative Day Nursery",
    "alternate_building_names": null,
    "latitude": 43.476478,
    "longitude": -80.549349,
    "latitude_osm": null,
    "longitude_osm": null
  },
  {
    "building_id": 124,
    "building_code": "BEG",
    "parent_building_code": null,
    "building_name": "BEG Test Building",
    "alternate_building_names": null,
    "latitude": null,
    "longitude": null,
    "latitude_osm": null,
    "longitude_osm": null
  },
  {
    "building_id": 125,
    "building_code": "AN3",
    "parent_building_code": null,
    "building_name": "145 Columbia",
    "alternate_building_names": null,
    "latitude": null,
    "longitude": null,
    "latitude_osm": null,
    "longitude_osm": null
  },
  {
    "building_id": 128,
    "building_code": "TUL",
    "parent_building_code": null,
    "building_name": "Tri-University Library",
    "alternate_building_names": null,
    "latitude": null,
    "longitude": null,
    "latitude_osm": null,
    "longitude_osm": null
  },
  {
    "building_id": 129,
    "building_code": "AB",
    "parent_building_code": null,
    "building_name": "Aberfoyle Building",
    "alternate_building_names": null,
    "latitude": null,
    "longitude": null,
    "latitude_osm": null,
    "longitude_osm": null
  },
  {
    "building_id": 130,
    "building_code": "AH",
    "parent_building_code": null,
    "building_name": "Aberfoyle House",
    "alternate_building_names": null,
    "latitude": null,
    "longitude": null,
    "latitude_osm": null,
    "longitude_osm": null
  },
  {
    "building_id": 131,
    "building_code": "AS",
    "parent_building_code": null,
    "building_name": "Aberfoyle Storage",
    "alternate_building_names": null,
    "latitude": null,
    "longitude": null,
    "latitude_osm": null,
    "longitude_osm": null
  },
  {
    "building_id": 132,
    "building_code": "GA",
    "parent_building_code": null,
    "building_name": "335 Gage Avenue",
    "alternate_building_names": null,
    "latitude": 43.44585,
    "longitude": -80.5184,
    "latitude_osm": 43.44638,
    "longitude_osm": -80.5193
  }, 
  {
    "building_id": 134,
    "building_code": "KGC",
    "parent_building_code": null,
    "building_name": "KW Garden Club",
    "alternate_building_names": null,
    "latitude": null,
    "longitude": null,
    "latitude_osm": null,
    "longitude_osm": null
  },
  {
    "building_id": 135,
    "building_code": "FRF",
    "parent_building_code": null,
    "building_name": "Fire Research Facility",
    "alternate_building_names": null,
    "latitude": null,
    "longitude": null,
    "latitude_osm": null,
    "longitude_osm": null
  },
  {
    "building_id": 136,
    "building_code": "PTB",
    "parent_building_code": null,
    "building_name": "Pavement & Transportation Technology Building",
    "alternate_building_names": null,
    "latitude": null,
    "longitude": null,
    "latitude_osm": null,
    "longitude_osm": null
  },
  {
    "building_id": 137,
    "building_code": "PTG",
    "parent_building_code": null,
    "building_name": "Pavement & Transportation Technology Garage",
    "alternate_building_names": null,
    "latitude": null,
    "longitude": null,
    "latitude_osm": null,
    "longitude_osm": null
  },
  {
    "building_id": 138,
    "building_code": "VS",
    "parent_building_code": null,
    "building_name": "Victoria School",
    "alternate_building_names": null,
    "latitude": null,
    "longitude": null,
    "latitude_osm": null,
    "longitude_osm": null
  },
  {
    "building_id": 139,
    "building_code": "VSS",
    "parent_building_code": null,
    "building_name": "68 Victoria Street South",
    "alternate_building_names": null,
    "latitude": null,
    "longitude": null,
    "latitude_osm": null,
    "longitude_osm": null
  },
  {
    "building_id": 140,
    "building_code": "AAR",
    "parent_building_code": null,
    "building_name": "Architecture Annex Rome",
    "alternate_building_names": null,
    "latitude": 41.889615,
    "longitude": 12.470925,
    "latitude_osm": null,
    "longitude_osm": null
  }, 
  {
    "building_id": 144,
    "building_code": "ACW",
    "parent_building_code": null,
    "building_name": "Accelerator Centre Waterloo",
    "alternate_building_names": null,
    "latitude": 43.47738445,
    "longitude": -80.5490991,
    "latitude_osm": 43.47743,
    "longitude_osm": -80.5491
  },
  {
    "building_id": 145,
    "building_code": "WF",
    "parent_building_code": null,
    "building_name": "Warrior Field",
    "alternate_building_names": null,
    "latitude": 43.4747,
    "longitude": -80.55014,
    "latitude_osm": 43.47464,
    "longitude_osm": -80.54993
  },
  {
    "building_id": 146,
    "building_code": "MRS",
    "parent_building_code": null,
    "building_name": "Medical & Related Sciences",
    "alternate_building_names": null,
    "latitude": null,
    "longitude": null,
    "latitude_osm": null,
    "longitude_osm": null
  }, 
  {
    "building_id": 148,
    "building_code": "SCO",
    "parent_building_code": null,
    "building_name": "Shanghai China Office",
    "alternate_building_names": null,
    "latitude": null,
    "longitude": null,
    "latitude_osm": null,
    "longitude_osm": null
  },
  {
    "building_id": 149,
    "building_code": "KSW",
    "parent_building_code": null,
    "building_name": "195 King Street West",
    "alternate_building_names": null,
    "latitude": null,
    "longitude": null,
    "latitude_osm": null,
    "longitude_osm": null
  },
  {
    "building_id": 150,
    "building_code": "HSC",
    "parent_building_code": null,
    "building_name": "Huntsville Summit Centre",
    "alternate_building_names": null,
    "latitude": 45.32211,
    "longitude": -79.20695,
    "latitude_osm": null,
    "longitude_osm": null
  },
  {
    "building_id": 151,
    "building_code": "UAE",
    "parent_building_code": null,
    "building_name": "United Arab Emirates Dubai",
    "alternate_building_names": null,
    "latitude": null,
    "longitude": null,
    "latitude_osm": null,
    "longitude_osm": null
  },
  {
    "building_id": 152,
    "building_code": "WSS",
    "parent_building_code": null,
    "building_name": "6 Wellington Street, Stratford",
    "alternate_building_names": null,
    "latitude": 43.370474,
    "longitude": -80.982231,
    "latitude_osm": 43.37048,
    "longitude_osm": -80.98234
  },
  {
    "building_id": 153,
    "building_code": "BSC",
    "parent_building_code": null,
    "building_name": "Bright Starts Co-operative Early Learning Centre",
    "alternate_building_names": null,
    "latitude": null,
    "longitude": null,
    "latitude_osm": 43.47707,
    "longitude_osm": -80.54515
  }, 
  {
    "building_id": 155,
    "building_code": "ASA",
    "parent_building_code": null,
    "building_name": "Allen Square Arts",
    "alternate_building_names": null,
    "latitude": null,
    "longitude": null,
    "latitude_osm": null,
    "longitude_osm": null
  },
  {
    "building_id": 156,
    "building_code": "CIGI",
    "parent_building_code": null,
    "building_name": "Centre for International Governance Innovation (BSIA)",
    "alternate_building_names": null,
    "latitude": null,
    "longitude": null,
    "latitude_osm": null,
    "longitude_osm": null
  },
  {
    "building_id": 158,
    "building_code": "VG",
    "parent_building_code": null,
    "building_name": "Velocity Garage",
    "alternate_building_names": null,
    "latitude": null,
    "longitude": null,
    "latitude_osm": null,
    "longitude_osm": null
  },
  {
    "building_id": 159,
    "building_code": "GSK",
    "parent_building_code": null,
    "building_name": "44 Gaukel Street, Kitchener",
    "alternate_building_names": null,
    "latitude": 43.449945,
    "longitude": -80.4933625,
    "latitude_osm": 43.44995,
    "longitude_osm": -80.49356
  },
  {
    "building_id": 160,
    "building_code": "WCP",
    "parent_building_code": null,
    "building_name": "Waterloo Central Place",
    "alternate_building_names": null,
    "latitude": null,
    "longitude": null,
    "latitude_osm": null,
    "longitude_osm": null
  },
  {
    "building_id": 161,
    "building_code": "MWS",
    "parent_building_code": null,
    "building_name": "Manulife Water Street",
    "alternate_building_names": null,
    "latitude": 43.450469,
    "longitude": -80.494966,
    "latitude_osm": 43.45053,
    "longitude_osm": -80.49496
  },
  {
    "building_id": 162,
    "building_code": "MTT",
    "parent_building_code": null,
    "building_name": "Master of Taxation Toronto",
    "alternate_building_names": null,
    "latitude": null,
    "longitude": null,
    "latitude_osm": null,
    "longitude_osm": null
  },
  {
    "building_id": 163,
    "building_code": "CSA",
    "parent_building_code": null,
    "building_name": "55 Caroline St. Apartments",
    "alternate_building_names": null,
    "latitude": null,
    "longitude": null,
    "latitude_osm": null,
    "longitude_osm": null
  },
  {
    "building_id": 164,
    "building_code": "PGC",
    "parent_building_code": null,
    "building_name": "166 Pinegrove Cres., Waterloo",
    "alternate_building_names": null,
    "latitude": null,
    "longitude": null,
    "latitude_osm": null,
    "longitude_osm": null
  },
  {
    "building_id": 165,
    "building_code": "TEC",
    "parent_building_code": null,
    "building_name": "220 Yonge Street, Suite 115, Toronto",
    "alternate_building_names": null,
    "latitude": null,
    "longitude": null,
    "latitude_osm": null,
    "longitude_osm": null
  },
  {
    "building_id": 166,
    "building_code": "STM",
    "parent_building_code": null,
    "building_name": "Shelburne Terrace, Gaithersburg, Maryland",
    "alternate_building_names": null,
    "latitude": null,
    "longitude": null,
    "latitude_osm": null,
    "longitude_osm": null
  },
  {
    "building_id": 167,
    "building_code": "LHI",
    "parent_building_code": null,
    "building_name": "Lyle S. Hallman Institute for Health Promotion",
    "alternate_building_names": null,
    "latitude": 43.473256,
    "longitude": -80.546066,
    "latitude_osm": 43.47322,
    "longitude_osm": -80.54616
  },
  {
    "building_id": 800,
    "building_code": "STJ",
    "parent_building_code": null,
    "building_name": "St. Jerome's University",
    "alternate_building_names": null,
    "latitude": null,
    "longitude": null,
    "latitude_osm": 43.46916,
    "longitude_osm": -80.54581
  },
  {
    "building_id": 801,
    "building_code": "STJ-SW",
    "parent_building_code": "STJ",
    "building_name": "St. Jerome's University Sweeney Hall",
    "alternate_building_names": null,
    "latitude": 43.46926818,
    "longitude": -80.54588395,
    "latitude_osm": null,
    "longitude_osm": null
  },
  {
    "building_id": 802,
    "building_code": "STJ-SWA",
    "parent_building_code": "STJ",
    "building_name": "St. Jerome's University Sweeney Hall Addition",
    "alternate_building_names": null,
    "latitude": 43.46926818,
    "longitude": -80.54588395,
    "latitude_osm": null,
    "longitude_osm": null
  },
  {
    "building_id": 811,
    "building_code": "STJ-FR",
    "parent_building_code": "STJ",
    "building_name": "St. Jerome's University Finn Residence",
    "alternate_building_names": null,
    "latitude": 43.46926818,
    "longitude": -80.54588395,
    "latitude_osm": null,
    "longitude_osm": null
  },
  {
    "building_id": 812,
    "building_code": "STJ-LH",
    "parent_building_code": "STJ",
    "building_name": "St. Jerome's University Louis Hall",
    "alternate_building_names": null,
    "latitude": 43.46926818,
    "longitude": -80.54588395,
    "latitude_osm": null,
    "longitude_osm": null
  },
  {
    "building_id": 813,
    "building_code": "STJ-CB",
    "parent_building_code": "STJ",
    "building_name": "St. Jerome's University Classroom Building",
    "alternate_building_names": null,
    "latitude": 43.46926818,
    "longitude": -80.54588395,
    "latitude_osm": null,
    "longitude_osm": null
  },
  {
    "building_id": 814,
    "building_code": "STJ-AC",
    "parent_building_code": "STJ",
    "building_name": "St. Jerome's University Academic Centre",
    "alternate_building_names": null,
    "latitude": 43.46926818,
    "longitude": -80.54588395,
    "latitude_osm": null,
    "longitude_osm": null
  },
  {
    "building_id": 815,
    "building_code": "STJ-RC",
    "parent_building_code": null,
    "building_name": "St. Jerome's University Residence Complex",
    "alternate_building_names": null,
    "latitude": null,
    "longitude": null,
    "latitude_osm": null,
    "longitude_osm": null
  },
  {
    "building_id": 820,
    "building_code": "REN",
    "parent_building_code": null,
    "building_name": "Renison University College",
    "alternate_building_names": null,
    "latitude": null,
    "longitude": null,
    "latitude_osm": 43.46884,
    "longitude_osm": -80.5474
  },
  {
    "building_id": 821,
    "building_code": "REN-OB",
    "parent_building_code": "REN",
    "building_name": "Renison University College Original Building",
    "alternate_building_names": null,
    "latitude": 43.46881657,
    "longitude": -80.54762202,
    "latitude_osm": null,
    "longitude_osm": null
  },
  {
    "building_id": 822,
    "building_code": "REN",
    "parent_building_code": "REN",
    "building_name": "Renison University College Addition",
    "alternate_building_names": null,
    "latitude": 43.46881657,
    "longitude": -80.54762202,
    "latitude_osm": null,
    "longitude_osm": null
  },
  {
    "building_id": 823,
    "building_code": "REN",
    "parent_building_code": "REN",
    "building_name": "Renison University College Addition 2 - Chapel",
    "alternate_building_names": null,
    "latitude": 43.46881657,
    "longitude": -80.54762202,
    "latitude_osm": null,
    "longitude_osm": null
  },
  {
    "building_id": 824,
    "building_code": "REN",
    "parent_building_code": "REN",
    "building_name": "Renison University College Addition 3 - Link",
    "alternate_building_names": null,
    "latitude": 43.46881657,
    "longitude": -80.54762202,
    "latitude_osm": null,
    "longitude_osm": null
  },
  {
    "building_id": 825,
    "building_code": "REN",
    "parent_building_code": "REN",
    "building_name": "Renison University College Addition 4 - Academic Centre",
    "alternate_building_names": null,
    "latitude": 43.46881657,
    "longitude": -80.54762202,
    "latitude_osm": null,
    "longitude_osm": null
  },
  {
    "building_id": 830,
    "building_code": "STP",
    "parent_building_code": null,
    "building_name": "St. Paul's University College",
    "alternate_building_names": null,
    "latitude": null,
    "longitude": null,
    "latitude_osm": 43.46783,
    "longitude_osm": -80.54637
  },
  {
    "building_id": 831,
    "building_code": "STP-ADMIN",
    "parent_building_code": "STP",
    "building_name": "St. Paul's United College Main Building",
    "alternate_building_names": null,
    "latitude": 43.467762,
    "longitude": -80.546404,
    "latitude_osm": null,
    "longitude_osm": null
  },
  {
    "building_id": 832,
    "building_code": "STP-WW",
    "parent_building_code": "STP",
    "building_name": "St. Paul's United College West Wing",
    "alternate_building_names": null,
    "latitude": 43.467762,
    "longitude": -80.546404,
    "latitude_osm": null,
    "longitude_osm": null
  },
  {
    "building_id": 833,
    "building_code": "STP-EW",
    "parent_building_code": "STP",
    "building_name": "St. Paul's United College East Wing",
    "alternate_building_names": null,
    "latitude": 43.467762,
    "longitude": -80.546404,
    "latitude_osm": null,
    "longitude_osm": null
  },
  {
    "building_id": 834,
    "building_code": "STP-GRAD",
    "parent_building_code": "STP",
    "building_name": "St. Paul's United College Graduate Apartment",
    "alternate_building_names": null,
    "latitude": 43.467762,
    "longitude": -80.546404,
    "latitude_osm": null,
    "longitude_osm": null
  },
  {
    "building_id": 835,
    "building_code": "STP-NW",
    "parent_building_code": "STP",
    "building_name": "St. Paul's United College North Wing",
    "alternate_building_names": null,
    "latitude": 43.467762,
    "longitude": -80.546404,
    "latitude_osm": null,
    "longitude_osm": null
  },
  {
    "building_id": 840,
    "building_code": "CGR",
    "parent_building_code": null,
    "building_name": "Conrad Grebel University College",
    "alternate_building_names": null,
    "latitude": 43.46656,
    "longitude": -80.54525,
    "latitude_osm": 43.46656,
    "longitude_osm": -80.54525
  },
  {
    "building_id": 841,
    "building_code": "CGR",
    "parent_building_code": "CGR",
    "building_name": "Conrad Grebel University College Residence",
    "alternate_building_names": null,
    "latitude": 43.46666747,
    "longitude": -80.54541188,
    "latitude_osm": 43.46666747,
    "longitude_osm": -80.54541188
  },
  {
    "building_id": 842,
    "building_code": "CGR",
    "parent_building_code": "CGR",
    "building_name": "Conrad Grebel University College Administration Building",
    "alternate_building_names": null,
    "latitude": 43.46666747,
    "longitude": -80.54541188,
    "latitude_osm": 43.46666747,
    "longitude_osm": -80.54541188
  },
  {
    "building_id": 843,
    "building_code": "CGR",
    "parent_building_code": "CGR",
    "building_name": "Conrad Grebel University College Residence Addition",
    "alternate_building_names": null,
    "latitude": 43.46666747,
    "longitude": -80.54541188,
    "latitude_osm": 43.46666747,
    "longitude_osm": -80.54541188
  },
  {
    "building_id": 844,
    "building_code": "CGR",
    "parent_building_code": "CGR",
    "building_name": "Conrad Grebel University College Administration Addition",
    "alternate_building_names": null,
    "latitude": 43.46666747,
    "longitude": -80.54541188,
    "latitude_osm": 43.46666747,
    "longitude_osm": -80.54541188
  },
  {
    "building_id": 845,
    "building_code": "CGR",
    "parent_building_code": "CGR",
    "building_name": "Conrad Grebel University College Apartments",
    "alternate_building_names": null,
    "latitude": 43.46666747,
    "longitude": -80.54541188,
    "latitude_osm": 43.46666747,
    "longitude_osm": -80.54541188
  },
  {
    "building_id": 4600,
    "building_code": "CLN",
    "parent_building_code": null,
    "building_name": "Columbia Lake Village North",
    "alternate_building_names": null,
    "latitude": null,
    "longitude": null,
    "latitude_osm": 43.4721,
    "longitude_osm": -80.56299
  },
  {
    "building_id": 4601,
    "building_code": "L01",
    "parent_building_code": "CLN",
    "building_name": "Columbia Lake Village North Block 1",
    "alternate_building_names": null,
    "latitude": 43.473547,
    "longitude": -80.562819,
    "latitude_osm": 43.47358,
    "longitude_osm": -80.5628
  },
  {
    "building_id": 4602,
    "building_code": "L02",
    "parent_building_code": "CLN",
    "building_name": "Columbia Lake Village North Block 2",
    "alternate_building_names": null,
    "latitude": 43.473173,
    "longitude": -80.562532,
    "latitude_osm": 43.47326,
    "longitude_osm": -80.56257
  },
  {
    "building_id": 4603,
    "building_code": "L03",
    "parent_building_code": "CLN",
    "building_name": "Columbia Lake Village North Block 3",
    "alternate_building_names": null,
    "latitude": 43.472739,
    "longitude": -80.562125,
    "latitude_osm": 43.47282,
    "longitude_osm": -80.56215
  },
  {
    "building_id": 4604,
    "building_code": "L04",
    "parent_building_code": "CLN",
    "building_name": "Columbia Lake Village North Block 4",
    "alternate_building_names": null,
    "latitude": 43.472426,
    "longitude": -80.561728,
    "latitude_osm": 43.47252,
    "longitude_osm": -80.56178
  },
  {
    "building_id": 4605,
    "building_code": "L05",
    "parent_building_code": "CLN",
    "building_name": "Columbia Lake Village North Block 5",
    "alternate_building_names": null,
    "latitude": 43.472194,
    "longitude": -80.561368,
    "latitude_osm": 43.47223,
    "longitude_osm": -80.56137
  },
  {
    "building_id": 4606,
    "building_code": "L06",
    "parent_building_code": "CLN",
    "building_name": "Columbia Lake Village North Block 6",
    "alternate_building_names": null,
    "latitude": 43.471896,
    "longitude": -80.561191,
    "latitude_osm": 43.47195,
    "longitude_osm": -80.5612
  },
  {
    "building_id": 4607,
    "building_code": "L07",
    "parent_building_code": "CLN",
    "building_name": "Columbia Lake Village North Block 7",
    "alternate_building_names": null,
    "latitude": 43.471723,
    "longitude": -80.561706,
    "latitude_osm": 43.47177,
    "longitude_osm": -80.56171
  },
  {
    "building_id": 4608,
    "building_code": "L08",
    "parent_building_code": "CLN",
    "building_name": "Columbia Lake Village North Block 8",
    "alternate_building_names": null,
    "latitude": 43.471536,
    "longitude": -80.562194,
    "latitude_osm": 43.47159,
    "longitude_osm": -80.56222
  },
  {
    "building_id": 4609,
    "building_code": "L09",
    "parent_building_code": "CLN",
    "building_name": "Columbia Lake Village North Block 9",
    "alternate_building_names": null,
    "latitude": 43.471895,
    "longitude": -80.562642,
    "latitude_osm": 43.47192,
    "longitude_osm": -80.56263
  },
  {
    "building_id": 4610,
    "building_code": "L10",
    "parent_building_code": "CLN",
    "building_name": "Columbia Lake Village North Block 10",
    "alternate_building_names": null,
    "latitude": 43.472243,
    "longitude": -80.562618,
    "latitude_osm": 43.47226,
    "longitude_osm": -80.56263
  },
  {
    "building_id": 4611,
    "building_code": "L11",
    "parent_building_code": "CLN",
    "building_name": "Columbia Lake Village North Block 11",
    "alternate_building_names": null,
    "latitude": 43.472568,
    "longitude": -80.562495,
    "latitude_osm": 43.47262,
    "longitude_osm": -80.56248
  },
  {
    "building_id": 4612,
    "building_code": "L12",
    "parent_building_code": "CLN",
    "building_name": "Columbia Lake Village North Block 12",
    "alternate_building_names": null,
    "latitude": 43.472251,
    "longitude": -80.56213,
    "latitude_osm": 43.47231,
    "longitude_osm": -80.56216
  },
  {
    "building_id": 4613,
    "building_code": "L13",
    "parent_building_code": "CLN",
    "building_name": "Columbia Lake Village North Block 13",
    "alternate_building_names": null,
    "latitude": 43.472885,
    "longitude": -80.562699,
    "latitude_osm": 43.47292,
    "longitude_osm": -80.5627
  },
  {
    "building_id": 4614,
    "building_code": "L14",
    "parent_building_code": "CLN",
    "building_name": "Columbia Lake Village North Block 14",
    "alternate_building_names": null,
    "latitude": 43.472447,
    "longitude": -80.562964,
    "latitude_osm": 43.47249,
    "longitude_osm": -80.56295
  },
  {
    "building_id": 4615,
    "building_code": "L15",
    "parent_building_code": "CLN",
    "building_name": "Columbia Lake Village North Block 15",
    "alternate_building_names": null,
    "latitude": 43.472148,
    "longitude": -80.563334,
    "latitude_osm": 43.47222,
    "longitude_osm": -80.56329
  },
  {
    "building_id": 4616,
    "building_code": "L16",
    "parent_building_code": "CLN",
    "building_name": "Columbia Lake Village North Block 16",
    "alternate_building_names": null,
    "latitude": 43.472081,
    "longitude": -80.56405,
    "latitude_osm": 43.47211,
    "longitude_osm": -80.56404
  },
  {
    "building_id": 4617,
    "building_code": "L17",
    "parent_building_code": "CLN",
    "building_name": "Columbia Lake Village North Block 17",
    "alternate_building_names": null,
    "latitude": 43.472451,
    "longitude": -80.56364,
    "latitude_osm": 43.4725,
    "longitude_osm": -80.56363
  },
  {
    "building_id": 4618,
    "building_code": "L18",
    "parent_building_code": "CLN",
    "building_name": "Columbia Lake Village North Block 18",
    "alternate_building_names": null,
    "latitude": 43.472652,
    "longitude": -80.563315,
    "latitude_osm": 43.47269,
    "longitude_osm": -80.56331
  },
  {
    "building_id": 4619,
    "building_code": "L19",
    "parent_building_code": "CLN",
    "building_name": "Columbia Lake Village North Block 19",
    "alternate_building_names": null,
    "latitude": 43.473284,
    "longitude": -80.563176,
    "latitude_osm": 43.47334,
    "longitude_osm": -80.56316
  },
  {
    "building_id": 4620,
    "building_code": "L20",
    "parent_building_code": "CLN",
    "building_name": "Columbia Lake Village North Block 20",
    "alternate_building_names": null,
    "latitude": 43.473,
    "longitude": -80.56349,
    "latitude_osm": 43.47303,
    "longitude_osm": -80.56351
  },
  {
    "building_id": 4621,
    "building_code": "L21",
    "parent_building_code": "CLN",
    "building_name": "Columbia Lake Village North Block 21",
    "alternate_building_names": null,
    "latitude": 43.472673,
    "longitude": -80.563852,
    "latitude_osm": 43.4727,
    "longitude_osm": -80.56387
  },
  {
    "building_id": 4622,
    "building_code": "L22",
    "parent_building_code": "CLN",
    "building_name": "Columbia Lake Village North Block 22",
    "alternate_building_names": null,
    "latitude": 43.472356,
    "longitude": -80.564235,
    "latitude_osm": 43.47239,
    "longitude_osm": -80.56421
  },
  {
    "building_id": 4623,
    "building_code": "L23",
    "parent_building_code": "CLN",
    "building_name": "Columbia Lake Village North Block 23",
    "alternate_building_names": null,
    "latitude": 43.471898,
    "longitude": -80.564713,
    "latitude_osm": 43.47199,
    "longitude_osm": -80.56467
  },
  {
    "building_id": 4624,
    "building_code": "L24",
    "parent_building_code": "CLN",
    "building_name": "Columbia Lake Village North Block 24",
    "alternate_building_names": null,
    "latitude": 43.471659,
    "longitude": -80.565011,
    "latitude_osm": 43.4717,
    "longitude_osm": -80.56499
  },
  {
    "building_id": 4625,
    "building_code": "L25",
    "parent_building_code": "CLN",
    "building_name": "Columbia Lake Village North Block 25",
    "alternate_building_names": null,
    "latitude": 43.471377,
    "longitude": -80.565327,
    "latitude_osm": 43.47145,
    "longitude_osm": -80.56534
  },
  {
    "building_id": 4626,
    "building_code": "L26",
    "parent_building_code": "CLN",
    "building_name": "Columbia Lake Village North Block 26",
    "alternate_building_names": null,
    "latitude": 43.471194,
    "longitude": -80.564995,
    "latitude_osm": 43.47124,
    "longitude_osm": -80.565
  },
  {
    "building_id": 4627,
    "building_code": "L27",
    "parent_building_code": "CLN",
    "building_name": "Columbia Lake Village North Block 27",
    "alternate_building_names": null,
    "latitude": 43.471153,
    "longitude": -80.564517,
    "latitude_osm": 43.4712,
    "longitude_osm": -80.56449
  },
  {
    "building_id": 4628,
    "building_code": "L28",
    "parent_building_code": "CLN",
    "building_name": "Columbia Lake Village North Block 28",
    "alternate_building_names": null,
    "latitude": 43.471268,
    "longitude": -80.56405,
    "latitude_osm": 43.47132,
    "longitude_osm": -80.56402
  },
  {
    "building_id": 4629,
    "building_code": "L29",
    "parent_building_code": "CLN",
    "building_name": "Columbia Lake Village North Block 29",
    "alternate_building_names": null,
    "latitude": 43.471359,
    "longitude": -80.563578,
    "latitude_osm": 43.4714,
    "longitude_osm": -80.56352
  },
  {
    "building_id": 4630,
    "building_code": "L30",
    "parent_building_code": "CLN",
    "building_name": "Columbia Lake Village North Block 30",
    "alternate_building_names": null,
    "latitude": 43.471414,
    "longitude": -80.562943,
    "latitude_osm": 43.47146,
    "longitude_osm": -80.56295
  },
  {
    "building_id": 4631,
    "building_code": "L31",
    "parent_building_code": "CLN",
    "building_name": "Columbia Lake Village North Block 31",
    "alternate_building_names": null,
    "latitude": 43.471719,
    "longitude": -80.562948,
    "latitude_osm": 43.47177,
    "longitude_osm": -80.56296
  },
  {
    "building_id": 4632,
    "building_code": "L32",
    "parent_building_code": "CLN",
    "building_name": "Columbia Lake Village North Block 32",
    "alternate_building_names": null,
    "latitude": 43.471793,
    "longitude": -80.56345,
    "latitude_osm": 43.47184,
    "longitude_osm": -80.56344
  },
  {
    "building_id": 4633,
    "building_code": "L33",
    "parent_building_code": "CLN",
    "building_name": "Columbia Lake Village North Block 33",
    "alternate_building_names": null,
    "latitude": 43.471606,
    "longitude": -80.563895,
    "latitude_osm": 43.47165,
    "longitude_osm": -80.56388
  },
  {
    "building_id": 4634,
    "building_code": "L34",
    "parent_building_code": "CLN",
    "building_name": "Columbia Lake Village North Block 34",
    "alternate_building_names": null,
    "latitude": 43.471439,
    "longitude": -80.564705,
    "latitude_osm": 43.47148,
    "longitude_osm": -80.56471
  },
  {
    "building_id": 4635,
    "building_code": "L35",
    "parent_building_code": "CLN",
    "building_name": "Columbia Lake Village North Block 35",
    "alternate_building_names": null,
    "latitude": 43.47185,
    "longitude": -80.564235,
    "latitude_osm": 43.47191,
    "longitude_osm": -80.56425
  },
  {
    "building_id": "A",
    "building_code": "SCS",
    "parent_building_code": null,
    "building_name": "South Campus - South Grounds",
    "alternate_building_names": null,
    "latitude": null,
    "longitude": null,
    "latitude_osm": null,
    "longitude_osm": null
  },
  {
    "building_id": "AHSX",
    "building_code": "AHS",
    "parent_building_code": null,
    "building_name": "AHS Expansion",
    "alternate_building_names": null,
    "latitude": 43.47361,
    "longitude": -80.54624,
    "latitude_osm": 43.47361,
    "longitude_osm": -80.54624
  },
  {
    "building_id": "B",
    "building_code": "SCN",
    "parent_building_code": null,
    "building_name": "South Campus - North Grounds",
    "alternate_building_names": null,
    "latitude": null,
    "longitude": null,
    "latitude_osm": null,
    "longitude_osm": null
  },
  {
    "building_id": "CGB",
    "building_code": "CGB",
    "parent_building_code": null,
    "building_name": "Campus General Buildings",
    "alternate_building_names": null,
    "latitude": null,
    "longitude": null,
    "latitude_osm": null,
    "longitude_osm": null
  },
  {
    "building_id": "D",
    "building_code": "VLG",
    "parent_building_code": null,
    "building_name": "Village 1 & 2 Grounds",
    "alternate_building_names": null,
    "latitude": null,
    "longitude": null,
    "latitude_osm": null,
    "longitude_osm": null
  },
  {
    "building_id": "E",
    "building_code": "MHG",
    "parent_building_code": null,
    "building_name": "Minota Hagey Grounds",
    "alternate_building_names": null,
    "latitude": null,
    "longitude": null,
    "latitude_osm": null,
    "longitude_osm": null
  },
  {
    "building_id": "F",
    "building_code": "FCG",
    "parent_building_code": null,
    "building_name": "Faculty Club Grounds",
    "alternate_building_names": null,
    "latitude": null,
    "longitude": null,
    "latitude_osm": null,
    "longitude_osm": null
  },
  {
    "building_id": "G",
    "building_code": "GAG",
    "parent_building_code": null,
    "building_name": "Garage & Garbage",
    "alternate_building_names": null,
    "latitude": null,
    "longitude": null,
    "latitude_osm": null,
    "longitude_osm": null
  },
  {
    "building_id": "H",
    "building_code": "MSG",
    "parent_building_code": null,
    "building_name": "Married Student Grounds",
    "alternate_building_names": null,
    "latitude": null,
    "longitude": null,
    "latitude_osm": null,
    "longitude_osm": null
  },
  {
    "building_id": "J",
    "building_code": "GRH",
    "parent_building_code": null,
    "building_name": "Greenhouse",
    "alternate_building_names": null,
    "latitude": null,
    "longitude": null,
    "latitude_osm": null,
    "longitude_osm": null
  },
  {
    "building_id": "K",
    "building_code": "NCG",
    "parent_building_code": null,
    "building_name": "North Campus Grounds",
    "alternate_building_names": null,
    "latitude": null,
    "longitude": null,
    "latitude_osm": null,
    "longitude_osm": null
  },
  {
    "building_id": "L",
    "building_code": "BAG",
    "parent_building_code": null,
    "building_name": "Bauer Grounds",
    "alternate_building_names": null,
    "latitude": null,
    "longitude": null,
    "latitude_osm": null,
    "longitude_osm": null
  },
  {
    "building_id": "M",
    "building_code": "LL",
    "parent_building_code": null,
    "building_name": "Laurel Lake",
    "alternate_building_names": null,
    "latitude": null,
    "longitude": null,
    "latitude_osm": null,
    "longitude_osm": null
  },
  {
    "building_id": "SCG",
    "building_code": "SCG",
    "parent_building_code": null,
    "building_name": "South Campus General",
    "alternate_building_names": null,
    "latitude": null,
    "longitude": null,
    "latitude_osm": null,
    "longitude_osm": null
  }
]