id,location,latitude,longitude,updated
,,43.4714875,-80.5494007,"Thu, 01 Mar 2018 09:45:22 GMT"
,James' office on phone,43.467855,-80.5431183,"Wed, 28 Feb 2018 16:24:42 GMT"
,details go here,43.4757601591404,-80.5447125523411,"Wed, 28 Feb 2018 15:10:09 GMT"
,dsgfdsg,43.4730250817277,-80.5402748306226,"Wed, 28 Feb 2018 15:27:11 GMT"
,fdhfg,19.075984,72.877656,"Wed, 28 Feb 2018 16:19:15 GMT"
,in the lake,43.4739593824378,-80.5556814393443,"Wed, 28 Feb 2018 14:46:49 GMT"
,dgfg,43.4723710626821,-80.5543081481904,"Wed, 28 Feb 2018 15:29:19 GMT"
,james' office,19.075984,72.877656,"Wed, 28 Feb 2018 16:22:16 GMT"
,this is a long description this is a long description this is a long description this is a long description,43.4681307135133,-80.5398439355812,"Wed, 28 Feb 2018 15:06:03 GMT"
